[{"id":47,"name":"Enchantment Peak","difficulty":5,"skillLevel":3,"distance":22,"elevationGain":7300,"tripLengthUnit":"days","tripLengthValue":2,"bestMonthStart":5,"bestMonthEnd":9,"peaks":[{"geonameId":900000015,"name":"Enchantment Peak","coordinates":{"lat":47.489201,"lng":-120.802667},"countryCode":"US","adminArea1":"Washington","adminArea2":"Chelan County","elevation":2603}]},{"id":42,"name":"Paddy-Go-Easy Peaks","difficulty":4,"skillLevel":3,"distance":9,"elevationGain":4900,"tripLengthUnit":"hours","tripLengthValue":9,"bestMonthStart":5,"bestMonthEnd":9,"peaks":[{"geonameId":900000014,"name":"Paddy-Go-North Peak","coordinates":{"lat":47.548496,"lng":-121.065804},"countryCode":"US","adminArea1":"Washington","adminArea2":"Chelan County","elevation":2004},{"geonameId":900000013,"name":"Paddy-Go-South Peak","coordinates":{"lat":47.538049,"lng":-121.054051},"countryCode":"US","adminArea1":"Washington","adminArea2":"Chelan County","elevation":2002},{"geonameId":900000012,"name":"Paddy-Go-Easy Peak","coordinates":{"lat":47.535641,"lng":-121.040437},"countryCode":"US","adminArea1":"Washington","adminArea2":"Chelan County","elevation":2080}]},{"id":20,"name":"Camels Hump","difficulty":4,"skillLevel":3,"distance":19,"elevationGain":5800,"tripLengthUnit":"days","tripLengthValue":2,"bestMonthStart":4,"bestMonthEnd":9,"peaks":[{"geonameId":900000004,"name":"Camels Hump","coordinates":{"lat":48.359263,"lng":-120.565709},"countryCode":"US","adminArea1":"Washington","adminArea2":"Chelan County","elevation":2444}]},{"id":41,"name":"Granite and Trico","difficulty":5,"skillLevel":3,"distance":19,"elevationGain":4400,"tripLengthUnit":"hours","tripLengthValue":13,"bestMonthStart":5,"bestMonthEnd":9,"peaks":[{"geonameId":5813909,"name":"Trico Mountain","coordinates":{"lat":47.59706,"lng":-121.11315},"countryCode":"US","adminArea1":"Washington","adminArea2":"Chelan County","elevation":2012},{"geonameId":5796005,"name":"Granite Mountain","coordinates":{"lat":47.58095,"lng":-121.0901},"countryCode":"US","adminArea1":"Washington","adminArea2":"Chelan County","elevation":2153}]},{"id":21,"name":"Sawtooth Ridge","difficulty":5,"skillLevel":3,"distance":41,"elevationGain":17800,"tripLengthUnit":"days","tripLengthValue":5,"bestMonthStart":5,"bestMonthEnd":8,"peaks":[{"geonameId":5812008,"name":"Star Peak","coordinates":{"lat":48.2507,"lng":-120.42843},"countryCode":"US","adminArea1":"Washington","adminArea2":"Chelan County","elevation":2644},{"geonameId":5791143,"name":"Courtney Peak","coordinates":{"lat":48.26042,"lng":-120.44315},"countryCode":"US","adminArea1":"Washington","adminArea2":"Chelan County","elevation":2535},{"geonameId":900000007,"name":"Switchback Peak","coordinates":{"lat":48.175612,"lng":-120.358225},"countryCode":"US","adminArea1":"Washington","adminArea2":"Okanogan County","elevation":2537},{"geonameId":900000006,"name":"Cheops","coordinates":{"lat":48.196766,"lng":-120.349104},"countryCode":"US","adminArea1":"Washington","adminArea2":"Okanogan County","elevation":2523},{"geonameId":900000005,"name":"Buttermilk Ridge","coordinates":{"lat":48.266579,"lng":-120.435641},"countryCode":"US","adminArea1":"Washington","adminArea2":"Okanogan County","elevation":2521},{"geonameId":5805924,"name":"Oval Peak","coordinates":{"lat":48.28709,"lng":-120.42454},"countryCode":"US","adminArea1":"Washington","adminArea2":"Okanogan County","elevation":2665},{"geonameId":5802527,"name":"Martin Peak","coordinates":{"lat":48.18847,"lng":-120.35092},"countryCode":"US","adminArea1":"Washington","adminArea2":"Okanogan County","elevation":2545},{"geonameId":5787274,"name":"Mount Bigelow","coordinates":{"lat":48.21847,"lng":-120.3537},"countryCode":"US","adminArea1":"Washington","adminArea2":"Okanogan County","elevation":2574}]},{"id":26,"name":"Maude and Seven Fingered Jack","difficulty":5,"skillLevel":4,"distance":15,"elevationGain":6900,"tripLengthUnit":"days","tripLengthValue":3,"bestMonthStart":6,"bestMonthEnd":9,"peaks":[{"geonameId":5809992,"name":"Seven Fingered Jack","coordinates":{"lat":48.15068,"lng":-120.81399},"countryCode":"US","adminArea1":"Washington","adminArea2":"Chelan County","elevation":2750},{"geonameId":5802650,"name":"Mount Maude","coordinates":{"lat":48.13735,"lng":-120.80399},"countryCode":"US","adminArea1":"Washington","adminArea2":"Chelan County","elevation":2748}]},{"id":27,"name":"Entiat Crest","difficulty":5,"skillLevel":5,"distance":42,"elevationGain":14000,"tripLengthUnit":"days","tripLengthValue":5,"bestMonthStart":5,"bestMonthEnd":9,"peaks":[{"geonameId":5809551,"name":"Saska Peak","coordinates":{"lat":48.11208,"lng":-120.6426},"countryCode":"US","adminArea1":"Washington","adminArea2":"Chelan County","elevation":2563},{"geonameId":5806912,"name":"Pinnacle Mountain","coordinates":{"lat":48.13235,"lng":-120.67038},"countryCode":"US","adminArea1":"Washington","adminArea2":"Chelan County","elevation":2546},{"geonameId":5793747,"name":"Emerald Peak","coordinates":{"lat":48.11458,"lng":-120.62871},"countryCode":"US","adminArea1":"Washington","adminArea2":"Chelan County","elevation":2542},{"geonameId":5789161,"name":"Cardinal Peak","coordinates":{"lat":48.10291,"lng":-120.6126},"countryCode":"US","adminArea1":"Washington","adminArea2":"Chelan County","elevation":2608}]},{"id":59,"name":"Old Maid Mountain","difficulty":4,"skillLevel":3,"distance":21,"elevationGain":6200,"tripLengthUnit":"days","tripLengthValue":3,"bestMonthStart":5,"bestMonthEnd":8,"peaks":[{"geonameId":5805610,"name":"Old Maid Mountain","coordinates":{"lat":48.17931,"lng":-120.3987},"countryCode":"US","adminArea1":"Washington","adminArea2":"Chelan County","elevation":2407}]},{"id":23,"name":"North Star Mountain","difficulty":5,"skillLevel":4,"distance":25,"elevationGain":4500,"tripLengthUnit":"days","tripLengthValue":3,"bestMonthStart":5,"bestMonthEnd":8,"peaks":[{"geonameId":5805295,"name":"North Star Mountain","coordinates":{"lat":48.22235,"lng":-120.90121},"countryCode":"US","adminArea1":"Washington","adminArea2":"Chelan County","elevation":2436}]},{"id":57,"name":"Mounts Mastiff and Howard","difficulty":4,"skillLevel":3,"distance":13,"elevationGain":5500,"tripLengthUnit":"hours","tripLengthValue":10,"bestMonthStart":5,"bestMonthEnd":8,"peaks":[{"geonameId":5802605,"name":"Mount Mastiff","coordinates":{"lat":47.81789,"lng":-120.93593},"countryCode":"US","adminArea1":"Washington","adminArea2":"Chelan County","elevation":2053},{"geonameId":5797868,"name":"Mount Howard","coordinates":{"lat":47.814,"lng":-120.95482},"countryCode":"US","adminArea1":"Washington","adminArea2":"Chelan County","elevation":2116}]},{"id":35,"name":"Lichtenberg Mountain","difficulty":2,"skillLevel":3,"distance":8,"elevationGain":2000,"tripLengthUnit":"hours","tripLengthValue":7,"bestMonthStart":2,"bestMonthEnd":9,"peaks":[{"geonameId":5800880,"name":"Lichtenberg Mountain","coordinates":{"lat":47.78789,"lng":-121.09093},"countryCode":"US","adminArea1":"Washington","adminArea2":"Chelan County","elevation":1761}]},{"id":34,"name":"Labyrinth Mountain","difficulty":1,"skillLevel":1,"distance":6,"elevationGain":2700,"tripLengthUnit":"hours","tripLengthValue":5,"bestMonthStart":4,"bestMonthEnd":10,"peaks":[{"geonameId":5800098,"name":"Labyrinth Mountain","coordinates":{"lat":47.85261,"lng":-121.0426},"countryCode":"US","adminArea1":"Washington","adminArea2":"Chelan County","elevation":1908}]},{"id":28,"name":"Indian Head Peak","difficulty":4,"skillLevel":3,"distance":25,"elevationGain":6200,"tripLengthUnit":"days","tripLengthValue":3,"bestMonthStart":5,"bestMonthEnd":8,"peaks":[{"geonameId":5798262,"name":"Indian Head Peak","coordinates":{"lat":48.00734,"lng":-121.09871},"countryCode":"US","adminArea1":"Washington","adminArea2":"Chelan County","elevation":2215}]},{"id":43,"name":"Grindstone Mountain","difficulty":4,"skillLevel":3,"distance":10,"elevationGain":5000,"tripLengthUnit":"hours","tripLengthValue":9,"bestMonthStart":5,"bestMonthEnd":9,"peaks":[{"geonameId":5796341,"name":"Grindstone Mountain","coordinates":{"lat":47.63651,"lng":-120.91259},"countryCode":"US","adminArea1":"Washington","adminArea2":"Chelan County","elevation":2250}]},{"id":24,"name":"Fortress and Buck","difficulty":5,"skillLevel":5,"distance":40,"elevationGain":10900,"tripLengthUnit":"days","tripLengthValue":4,"bestMonthStart":6,"bestMonthEnd":8,"peaks":[{"geonameId":5794819,"name":"Fortress Mountain","coordinates":{"lat":48.15929,"lng":-120.93399},"countryCode":"US","adminArea1":"Washington","adminArea2":"Chelan County","elevation":2643},{"geonameId":5788346,"name":"Buck Mountain","coordinates":{"lat":48.09373,"lng":-120.91288},"countryCode":"US","adminArea1":"Washington","adminArea2":"Chelan County","elevation":2529}]},{"id":46,"name":"Dragontail Peak","difficulty":5,"skillLevel":5,"distance":14,"elevationGain":5600,"tripLengthUnit":"hours","tripLengthValue":14,"bestMonthStart":4,"bestMonthEnd":8,"peaks":[{"geonameId":5792723,"name":"Dragontail Peak","coordinates":{"lat":47.47873,"lng":-120.83342},"countryCode":"US","adminArea1":"Washington","adminArea2":"Chelan County","elevation":2685}]},{"id":58,"name":"Dirtyface Peak","difficulty":5,"skillLevel":4,"distance":13,"elevationGain":5000,"tripLengthUnit":"hours","tripLengthValue":12,"bestMonthStart":4,"bestMonthEnd":6,"peaks":[{"geonameId":5792452,"name":"Dirtyface Peak","coordinates":{"lat":47.87123,"lng":-120.8251},"countryCode":"US","adminArea1":"Washington","adminArea2":"Chelan County","elevation":1903}]},{"id":45,"name":"Colchuck Peak","difficulty":5,"skillLevel":5,"distance":13,"elevationGain":5100,"tripLengthUnit":"hours","tripLengthValue":12,"bestMonthStart":4,"bestMonthEnd":6,"peaks":[{"geonameId":5790485,"name":"Colchuck Peak","coordinates":{"lat":47.47706,"lng":-120.84509},"countryCode":"US","adminArea1":"Washington","adminArea2":"Chelan County","elevation":2593}]},{"id":25,"name":"Chiwawa Mountain","difficulty":4,"skillLevel":5,"distance":18,"elevationGain":5700,"tripLengthUnit":"days","tripLengthValue":2,"bestMonthStart":6,"bestMonthEnd":8,"peaks":[{"geonameId":5790043,"name":"Chiwawa Mountain","coordinates":{"lat":48.16346,"lng":-120.90732},"countryCode":"US","adminArea1":"Washington","adminArea2":"Chelan County","elevation":2576}]},{"id":44,"name":"Cashmere Mountain","difficulty":5,"skillLevel":3,"distance":17,"elevationGain":5700,"tripLengthUnit":"hours","tripLengthValue":11,"bestMonthStart":4,"bestMonthEnd":8,"peaks":[{"geonameId":5789347,"name":"Cashmere Mountain","coordinates":{"lat":47.55873,"lng":-120.84703},"countryCode":"US","adminArea1":"Washington","adminArea2":"Chelan County","elevation":2575}]},{"id":75,"name":"Bailey Range Traverse","difficulty":5,"skillLevel":5,"distance":60,"elevationGain":13000,"tripLengthUnit":"days","tripLengthValue":6,"bestMonthStart":6,"bestMonthEnd":8,"peaks":[{"geonameId":5812121,"name":"Stephen Peak","coordinates":{"lat":47.86953,"lng":-123.59546},"countryCode":"US","adminArea1":"Washington","adminArea2":"Clallam County","elevation":1926},{"geonameId":5789415,"name":"Cat Peak","coordinates":{"lat":47.90009,"lng":-123.67991},"countryCode":"US","adminArea1":"Washington","adminArea2":"Clallam County","elevation":1797},{"geonameId":5789233,"name":"Mount Carrie","coordinates":{"lat":47.89425,"lng":-123.64908},"countryCode":"US","adminArea1":"Washington","adminArea2":"Clallam County","elevation":2125},{"geonameId":5809875,"name":"Mount Seattle","coordinates":{"lat":47.73092,"lng":-123.57768},"countryCode":"US","adminArea1":"Washington","adminArea2":"Jefferson County","elevation":1892},{"geonameId":5807670,"name":"Mount Queets","coordinates":{"lat":47.76203,"lng":-123.59518},"countryCode":"US","adminArea1":"Washington","adminArea2":"Jefferson County","elevation":1966},{"geonameId":5805362,"name":"Mount Noyes","coordinates":{"lat":47.73925,"lng":-123.5949},"countryCode":"US","adminArea1":"Washington","adminArea2":"Jefferson County","elevation":1843},{"geonameId":5794300,"name":"Mount Ferry","coordinates":{"lat":47.84203,"lng":-123.56741},"countryCode":"US","adminArea1":"Washington","adminArea2":"Jefferson County","elevation":1854},{"geonameId":5786386,"name":"Mount Barnes","coordinates":{"lat":47.7837,"lng":-123.57602},"countryCode":"US","adminArea1":"Washington","adminArea2":"Jefferson County","elevation":1797}]},{"id":74,"name":"Mount Appleton","difficulty":3,"skillLevel":2,"distance":18,"elevationGain":4400,"tripLengthUnit":"days","tripLengthValue":2,"bestMonthStart":5,"bestMonthEnd":9,"peaks":[{"geonameId":5785798,"name":"Mount Appleton","coordinates":{"lat":47.95009,"lng":-123.73297},"countryCode":"US","adminArea1":"Washington","adminArea2":"Clallam County","elevation":1821}]},{"id":76,"name":"Mounts Elk Lick and LaCrosse","difficulty":5,"skillLevel":5,"distance":46,"elevationGain":7000,"tripLengthUnit":"days","tripLengthValue":4,"bestMonthStart":6,"bestMonthEnd":9,"peaks":[{"geonameId":5800090,"name":"Mount LaCrosse","coordinates":{"lat":47.68398,"lng":-123.31045},"countryCode":"US","adminArea1":"Washington","adminArea2":"Jefferson County","elevation":1847},{"geonameId":5793616,"name":"Mount Elk Lick","coordinates":{"lat":47.68842,"lng":-123.25767},"countryCode":"US","adminArea1":"Washington","adminArea2":"Jefferson County","elevation":1974}]},{"id":77,"name":"The Brothers","difficulty":5,"skillLevel":4,"distance":14,"elevationGain":6400,"tripLengthUnit":"days","tripLengthValue":2,"bestMonthStart":4,"bestMonthEnd":9,"peaks":[{"geonameId":5788201,"name":"The Brothers","coordinates":{"lat":47.65315,"lng":-123.141},"countryCode":"US","adminArea1":"Washington","adminArea2":"Jefferson County","elevation":2019}]},{"id":52,"name":"Hemlock Peak","difficulty":3,"skillLevel":3,"distance":8,"elevationGain":3300,"tripLengthUnit":"hours","tripLengthValue":9,"bestMonthStart":4,"bestMonthEnd":9,"peaks":[{"geonameId":900000019,"name":"Hemlock Peak","coordinates":{"lat":47.4486,"lng":-121.458902},"countryCode":"US","adminArea1":"Washington","adminArea2":"King County","elevation":1696}]},{"id":38,"name":"La Bohn Peak and Otter Point","difficulty":5,"skillLevel":4,"distance":19,"elevationGain":5600,"tripLengthUnit":"hours","tripLengthValue":16,"bestMonthStart":6,"bestMonthEnd":9,"peaks":[{"geonameId":900000011,"name":"Otter Point","coordinates":{"lat":47.576998,"lng":-121.271589},"countryCode":"US","adminArea1":"Washington","adminArea2":"King County","elevation":1939},{"geonameId":900000010,"name":"La Bohn Peak","coordinates":{"lat":47.562486,"lng":-121.249868},"countryCode":"US","adminArea1":"Washington","adminArea2":"King County","elevation":2008}]},{"id":37,"name":"Camp Robber Peak","difficulty":5,"skillLevel":3,"distance":17,"elevationGain":5800,"tripLengthUnit":"hours","tripLengthValue":15,"bestMonthStart":5,"bestMonthEnd":8,"peaks":[{"geonameId":900000009,"name":"Camp Robber Peak","coordinates":{"lat":47.571167,"lng":-121.331948},"countryCode":"US","adminArea1":"Washington","adminArea2":"King County","elevation":1917}]},{"id":53,"name":"Tinkham Peak","difficulty":1,"skillLevel":2,"distance":6,"elevationGain":2000,"tripLengthUnit":"hours","tripLengthValue":6,"bestMonthStart":5,"bestMonthEnd":9,"peaks":[{"geonameId":5813624,"name":"Tinkham Peak","coordinates":{"lat":47.34761,"lng":-121.44926},"countryCode":"US","adminArea1":"Washington","adminArea2":"King County","elevation":1622}]},{"id":40,"name":"Summit Chief Mountain","difficulty":5,"skillLevel":5,"distance":26,"elevationGain":5000,"tripLengthUnit":"days","tripLengthValue":2,"bestMonthStart":5,"bestMonthEnd":6,"peaks":[{"geonameId":5812507,"name":"Summit Chief Mountain","coordinates":{"lat":47.52345,"lng":-121.26621},"countryCode":"US","adminArea1":"Washington","adminArea2":"King County","elevation":2228}]},{"id":51,"name":"Mount Roosevelt","difficulty":4,"skillLevel":5,"distance":14,"elevationGain":3500,"tripLengthUnit":"hours","tripLengthValue":10,"bestMonthStart":5,"bestMonthEnd":9,"peaks":[{"geonameId":5808783,"name":"Mount Roosevelt","coordinates":{"lat":47.48067,"lng":-121.50371},"countryCode":"US","adminArea1":"Washington","adminArea2":"King County","elevation":1787}]},{"id":36,"name":"Baring Mountain","difficulty":4,"skillLevel":4,"distance":9,"elevationGain":4000,"tripLengthUnit":"hours","tripLengthValue":9,"bestMonthStart":4,"bestMonthEnd":8,"peaks":[{"geonameId":5786339,"name":"Baring Mountain","coordinates":{"lat":47.77927,"lng":-121.43566},"countryCode":"US","adminArea1":"Washington","adminArea2":"King County","elevation":1864}]},{"id":54,"name":"Mount Skookum and Jolly Mountain","difficulty":4,"skillLevel":2,"distance":12,"elevationGain":3800,"tripLengthUnit":"hours","tripLengthValue":11,"bestMonthStart":4,"bestMonthEnd":9,"peaks":[{"geonameId":900000020,"name":"Mount Skookum","coordinates":{"lat":47.408021,"lng":-121.000104},"countryCode":"US","adminArea1":"Washington","adminArea2":"Kittitas County","elevation":1950},{"geonameId":5798906,"name":"Jolly Mountain","coordinates":{"lat":47.38373,"lng":-121.02203},"countryCode":"US","adminArea1":"Washington","adminArea2":"Kittitas County","elevation":1943}]},{"id":48,"name":"Bills, Bean, and Volcanic Neck","difficulty":4,"skillLevel":5,"distance":11,"elevationGain":4900,"tripLengthUnit":"hours","tripLengthValue":11,"bestMonthStart":4,"bestMonthEnd":9,"peaks":[{"geonameId":900000018,"name":"Volcanic Neck","coordinates":{"lat":47.426423,"lng":-120.859142},"countryCode":"US","adminArea1":"Washington","adminArea2":"Kittitas County","elevation":2013},{"geonameId":900000017,"name":"Bean Peak","coordinates":{"lat":47.420556,"lng":-120.861454},"countryCode":"US","adminArea1":"Washington","adminArea2":"Kittitas County","elevation":2056},{"geonameId":900000016,"name":"Bills Peak","coordinates":{"lat":47.427805,"lng":-120.892046},"countryCode":"US","adminArea1":"Washington","adminArea2":"Kittitas County","elevation":2109}]},{"id":49,"name":"Hibox Mountain","difficulty":3,"skillLevel":4,"distance":9,"elevationGain":3800,"tripLengthUnit":"hours","tripLengthValue":9,"bestMonthStart":5,"bestMonthEnd":9,"peaks":[{"geonameId":5797201,"name":"Hibox Mountain","coordinates":{"lat":47.43178,"lng":-121.30065},"countryCode":"US","adminArea1":"Washington","adminArea2":"Kittitas County","elevation":1994}]},{"id":55,"name":"Hawkins Mountain","difficulty":4,"skillLevel":2,"distance":8,"elevationGain":3600,"tripLengthUnit":"hours","tripLengthValue":8,"bestMonthStart":4,"bestMonthEnd":9,"peaks":[{"geonameId":5796922,"name":"Hawkins Mountain","coordinates":{"lat":47.4502,"lng":-121.0013},"countryCode":"US","adminArea1":"Washington","adminArea2":"Kittitas County","elevation":2166}]},{"id":56,"name":"Esmeralda Peaks","difficulty":3,"skillLevel":3,"distance":8,"elevationGain":3000,"tripLengthUnit":"hours","tripLengthValue":9,"bestMonthStart":5,"bestMonthEnd":9,"peaks":[{"geonameId":5793873,"name":"Esmeralda Peaks","coordinates":{"lat":47.43817,"lng":-120.95092},"countryCode":"US","adminArea1":"Washington","adminArea2":"Kittitas County","elevation":1939}]},{"id":39,"name":"Mount Daniel","difficulty":5,"skillLevel":4,"distance":16,"elevationGain":5200,"tripLengthUnit":"hours","tripLengthValue":12,"bestMonthStart":5,"bestMonthEnd":8,"peaks":[{"geonameId":5791763,"name":"Mount Daniel","coordinates":{"lat":47.56261,"lng":-121.17204},"countryCode":"US","adminArea1":"Washington","adminArea2":"Kittitas County","elevation":2403}]},{"id":50,"name":"Alta Mountain","difficulty":2,"skillLevel":1,"distance":12,"elevationGain":3600,"tripLengthUnit":"hours","tripLengthValue":9,"bestMonthStart":4,"bestMonthEnd":9,"peaks":[{"geonameId":5785592,"name":"Alta Mountain","coordinates":{"lat":47.44067,"lng":-121.33204},"countryCode":"US","adminArea1":"Washington","adminArea2":"Kittitas County","elevation":1880}]},{"id":67,"name":"Tatoosh Traverse","difficulty":5,"skillLevel":5,"distance":9,"elevationGain":5200,"tripLengthUnit":"hours","tripLengthValue":13,"bestMonthStart":6,"bestMonthEnd":7,"peaks":[{"geonameId":5814865,"name":"Wahpenayo Peak","coordinates":{"lat":46.74705,"lng":-121.76704},"countryCode":"US","adminArea1":"Washington","adminArea2":"Lewis County","elevation":1885},{"geonameId":5807065,"name":"Plummer Peak","coordinates":{"lat":46.75344,"lng":-121.73954},"countryCode":"US","adminArea1":"Washington","adminArea2":"Lewis County","elevation":1933},{"geonameId":5806914,"name":"Pinnacle Peak","coordinates":{"lat":46.75816,"lng":-121.73259},"countryCode":"US","adminArea1":"Washington","adminArea2":"Lewis County","elevation":1972},{"geonameId":5800460,"name":"Lane Peak","coordinates":{"lat":46.75789,"lng":-121.75287},"countryCode":"US","adminArea1":"Washington","adminArea2":"Lewis County","elevation":1832},{"geonameId":5793050,"name":"Eagle Peak","coordinates":{"lat":46.75566,"lng":-121.77898},"countryCode":"US","adminArea1":"Washington","adminArea2":"Lewis County","elevation":1807},{"geonameId":5792229,"name":"Denman Peak","coordinates":{"lat":46.75733,"lng":-121.74343},"countryCode":"US","adminArea1":"Washington","adminArea2":"Lewis County","elevation":1833},{"geonameId":5790131,"name":"Chutla Peak","coordinates":{"lat":46.75261,"lng":-121.77482},"countryCode":"US","adminArea1":"Washington","adminArea2":"Lewis County","elevation":1803}]},{"id":69,"name":"Old Snowy Mountain","difficulty":3,"skillLevel":1,"distance":14,"elevationGain":3500,"tripLengthUnit":"days","tripLengthValue":2,"bestMonthStart":5,"bestMonthEnd":9,"peaks":[{"geonameId":5805624,"name":"Old Snowy Mountain","coordinates":{"lat":46.51206,"lng":-121.45397},"countryCode":"US","adminArea1":"Washington","adminArea2":"Lewis County","elevation":2389}]},{"id":79,"name":"Mount Washington","difficulty":2,"skillLevel":4,"distance":4,"elevationGain":3190,"tripLengthUnit":"hours","tripLengthValue":5,"bestMonthStart":2,"bestMonthEnd":9,"peaks":[{"geonameId":5815133,"name":"Mount Washington","coordinates":{"lat":47.5312,"lng":-123.246},"countryCode":"US","adminArea1":"Washington","adminArea2":"Mason County","elevation":1905}]},{"id":78,"name":"Mount Stone","difficulty":4,"skillLevel":5,"distance":11,"elevationGain":5100,"tripLengthUnit":"hours","tripLengthValue":10,"bestMonthStart":5,"bestMonthEnd":9,"peaks":[{"geonameId":5812267,"name":"Mount Stone","coordinates":{"lat":47.60648,"lng":-123.26655},"countryCode":"US","adminArea1":"Washington","adminArea2":"Mason County","elevation":1974}]},{"id":80,"name":"Lightning Peak","difficulty":3,"skillLevel":3,"distance":7,"elevationGain":3800,"tripLengthUnit":"hours","tripLengthValue":7,"bestMonthStart":3,"bestMonthEnd":9,"peaks":[{"geonameId":5800907,"name":"Lightning Peak","coordinates":{"lat":47.4912,"lng":-123.34878},"countryCode":"US","adminArea1":"Washington","adminArea2":"Mason County","elevation":1343}]},{"id":60,"name":"Big Craggy and West Craggy Peaks","difficulty":3,"skillLevel":3,"distance":12,"elevationGain":5800,"tripLengthUnit":"days","tripLengthValue":2,"bestMonthStart":6,"bestMonthEnd":9,"peaks":[{"geonameId":900000021,"name":"West Craggy Peak","coordinates":{"lat":48.762425,"lng":-120.346174},"countryCode":"US","adminArea1":"Washington","adminArea2":"Okanogan County","elevation":2552},{"geonameId":5787145,"name":"Big Craggy Peak","coordinates":{"lat":48.76292,"lng":-120.3276},"countryCode":"US","adminArea1":"Washington","adminArea2":"Okanogan County","elevation":2575}]},{"id":17,"name":"Gilbert Mountain","difficulty":3,"skillLevel":4,"distance":14,"elevationGain":4600,"tripLengthUnit":"days","tripLengthValue":2,"bestMonthStart":6,"bestMonthEnd":9,"peaks":[{"geonameId":900000003,"name":"Gilbert Mountain","coordinates":{"lat":48.480925,"lng":-120.581117},"countryCode":"US","adminArea1":"Washington","adminArea2":"Okanogan County","elevation":2446}]},{"id":15,"name":"Wallaby Peak","difficulty":2,"skillLevel":4,"distance":6,"elevationGain":2800,"tripLengthUnit":"hours","tripLengthValue":7,"bestMonthStart":5,"bestMonthEnd":9,"peaks":[{"geonameId":900000002,"name":"Wallaby Peak","coordinates":{"lat":48.506773,"lng":-120.615238},"countryCode":"US","adminArea1":"Washington","adminArea2":"Okanogan County","elevation":2438}]},{"id":14,"name":"Bauerman Ridge","difficulty":4,"skillLevel":2,"distance":28,"elevationGain":5800,"tripLengthUnit":"days","tripLengthValue":2,"bestMonthStart":4,"bestMonthEnd":9,"peaks":[{"geonameId":900000001,"name":"Bauerman Ridge","coordinates":{"lat":48.977161,"lng":-120.066728},"countryCode":"US","adminArea1":"Washington","adminArea2":"Okanogan County","elevation":2454}]},{"id":19,"name":"Hock Mountain","difficulty":4,"skillLevel":4,"distance":14,"elevationGain":4700,"tripLengthUnit":"hours","tripLengthValue":12,"bestMonthStart":6,"bestMonthEnd":8,"peaks":[{"geonameId":5844138,"name":"Hock Mountain","coordinates":{"lat":48.45125,"lng":-120.66594},"countryCode":"US","adminArea1":"Washington","adminArea2":"Okanogan County","elevation":2306}]},{"id":9,"name":"Robinson Mountain","difficulty":5,"skillLevel":5,"distance":12,"elevationGain":6200,"tripLengthUnit":"hours","tripLengthValue":12,"bestMonthStart":5,"bestMonthEnd":9,"peaks":[{"geonameId":5808506,"name":"Robinson Mountain","coordinates":{"lat":48.72653,"lng":-120.57483},"countryCode":"US","adminArea1":"Washington","adminArea2":"Okanogan County","elevation":2653}]},{"id":11,"name":"Ptarmigan Peak","difficulty":5,"skillLevel":1,"distance":42,"elevationGain":6700,"tripLengthUnit":"days","tripLengthValue":3,"bestMonthStart":6,"bestMonthEnd":9,"peaks":[{"geonameId":5807504,"name":"Ptarmigan Peak","coordinates":{"lat":48.86597,"lng":-120.53205},"countryCode":"US","adminArea1":"Washington","adminArea2":"Okanogan County","elevation":2602}]},{"id":13,"name":"Pass Butte and Lost Peak","difficulty":5,"skillLevel":2,"distance":40,"elevationGain":7500,"tripLengthUnit":"days","tripLengthValue":3,"bestMonthStart":5,"bestMonthEnd":9,"peaks":[{"geonameId":5806303,"name":"Pass Butte","coordinates":{"lat":48.81931,"lng":-120.47955},"countryCode":"US","adminArea1":"Washington","adminArea2":"Okanogan County","elevation":2477},{"geonameId":5801767,"name":"Lost Peak","coordinates":{"lat":48.81264,"lng":-120.4576},"countryCode":"US","adminArea1":"Washington","adminArea2":"Okanogan County","elevation":2552}]},{"id":10,"name":"Osceola, Lago, and Carru","difficulty":5,"skillLevel":4,"distance":40,"elevationGain":11000,"tripLengthUnit":"hours","tripLengthValue":12,"bestMonthStart":5,"bestMonthEnd":9,"peaks":[{"geonameId":5805878,"name":"Osceola Peak","coordinates":{"lat":48.83097,"lng":-120.57566},"countryCode":"US","adminArea1":"Washington","adminArea2":"Okanogan County","elevation":2581},{"geonameId":5800148,"name":"Mount Lago","coordinates":{"lat":48.82931,"lng":-120.53705},"countryCode":"US","adminArea1":"Washington","adminArea2":"Okanogan County","elevation":2655},{"geonameId":5789242,"name":"Mountain Carru","coordinates":{"lat":48.83208,"lng":-120.55344},"countryCode":"US","adminArea1":"Washington","adminArea2":"Okanogan County","elevation":2519}]},{"id":16,"name":"Gardner and North Gardner","difficulty":4,"skillLevel":4,"distance":27,"elevationGain":8000,"tripLengthUnit":"days","tripLengthValue":3,"bestMonthStart":4,"bestMonthEnd":9,"peaks":[{"geonameId":5805191,"name":"North Gardner Mountain","coordinates":{"lat":48.51542,"lng":-120.50176},"countryCode":"US","adminArea1":"Washington","adminArea2":"Okanogan County","elevation":2717},{"geonameId":5795258,"name":"Gardner Mountain","coordinates":{"lat":48.50709,"lng":-120.48815},"countryCode":"US","adminArea1":"Washington","adminArea2":"Okanogan County","elevation":2716}]},{"id":12,"name":"Monument and Lake","difficulty":4,"skillLevel":3,"distance":28,"elevationGain":10500,"tripLengthUnit":"days","tripLengthValue":3,"bestMonthStart":5,"bestMonthEnd":9,"peaks":[{"geonameId":5803838,"name":"Monument Peak","coordinates":{"lat":48.79403,"lng":-120.54316},"countryCode":"US","adminArea1":"Washington","adminArea2":"Okanogan County","elevation":2612},{"geonameId":5800285,"name":"Lake Mountain","coordinates":{"lat":48.78153,"lng":-120.51149},"countryCode":"US","adminArea1":"Washington","adminArea2":"Okanogan County","elevation":2525}]},{"id":22,"name":"Hoodoo Peak","difficulty":3,"skillLevel":3,"distance":11,"elevationGain":4500,"tripLengthUnit":"hours","tripLengthValue":9,"bestMonthStart":5,"bestMonthEnd":9,"peaks":[{"geonameId":5797651,"name":"Hoodoo Peak","coordinates":{"lat":48.25181,"lng":-120.34259},"countryCode":"US","adminArea1":"Washington","adminArea2":"Okanogan County","elevation":2571}]},{"id":18,"name":"Abernathy Peak","difficulty":3,"skillLevel":2,"distance":10,"elevationGain":5200,"tripLengthUnit":"hours","tripLengthValue":11,"bestMonthStart":6,"bestMonthEnd":9,"peaks":[{"geonameId":5785256,"name":"Abernathy Peak","coordinates":{"lat":48.47736,"lng":-120.52426},"countryCode":"US","adminArea1":"Washington","adminArea2":"Okanogan County","elevation":2523}]},{"id":65,"name":"Governors Ridge and Barrier Peak","difficulty":3,"skillLevel":5,"distance":11,"elevationGain":3400,"tripLengthUnit":"hours","tripLengthValue":9,"bestMonthStart":6,"bestMonthEnd":8,"peaks":[{"geonameId":900000024,"name":"Governors Ridge","coordinates":{"lat":46.86472,"lng":-121.573252},"countryCode":"US","adminArea1":"Washington","adminArea2":"Pierce County","elevation":2013},{"geonameId":5786410,"name":"Barrier Peak","coordinates":{"lat":46.85955,"lng":-121.57648},"countryCode":"US","adminArea1":"Washington","adminArea2":"Pierce County","elevation":1949}]},{"id":64,"name":"Banshee Peak","difficulty":3,"skillLevel":1,"distance":14,"elevationGain":3600,"tripLengthUnit":"hours","tripLengthValue":9,"bestMonthStart":6,"bestMonthEnd":8,"peaks":[{"geonameId":900000023,"name":"Banshee Peak","coordinates":{"lat":46.851115,"lng":-121.620636},"countryCode":"US","adminArea1":"Washington","adminArea2":"Pierce County","elevation":2257}]},{"id":61,"name":"Echo and Observation Rocks","difficulty":4,"skillLevel":4,"distance":12,"elevationGain":4300,"tripLengthUnit":"hours","tripLengthValue":10,"bestMonthStart":6,"bestMonthEnd":8,"peaks":[{"geonameId":900000022,"name":"Echo Rock","coordinates":{"lat":46.906875,"lng":-121.800682},"countryCode":"US","adminArea1":"Washington","adminArea2":"Pierce County","elevation":2400},{"geonameId":5805491,"name":"Observation Rock","coordinates":{"lat":46.90177,"lng":-121.80649},"countryCode":"US","adminArea1":"Washington","adminArea2":"Pierce County","elevation":2508}]},{"id":68,"name":"Mount Wow","difficulty":4,"skillLevel":3,"distance":9,"elevationGain":4400,"tripLengthUnit":"hours","tripLengthValue":10,"bestMonthStart":3,"bestMonthEnd":9,"peaks":[{"geonameId":5816534,"name":"Mount Wow","coordinates":{"lat":46.77844,"lng":-121.90177},"countryCode":"US","adminArea1":"Washington","adminArea2":"Pierce County","elevation":1800}]},{"id":62,"name":"Mount Ruth","difficulty":4,"skillLevel":2,"distance":10,"elevationGain":4500,"tripLengthUnit":"hours","tripLengthValue":9,"bestMonthStart":5,"bestMonthEnd":7,"peaks":[{"geonameId":5809052,"name":"Mount Ruth","coordinates":{"lat":46.87622,"lng":-121.71593},"countryCode":"US","adminArea1":"Washington","adminArea2":"Pierce County","elevation":2635}]},{"id":66,"name":"The Palisades and Marcus Peak","difficulty":2,"skillLevel":3,"distance":10,"elevationGain":3400,"tripLengthUnit":"hours","tripLengthValue":8,"bestMonthStart":6,"bestMonthEnd":9,"peaks":[{"geonameId":900000032,"name":"Palisades Peak","coordinates":{"lat":46.947738,"lng":-121.604522},"countryCode":"US","adminArea1":"Washington","adminArea2":"Pierce County","elevation":2147},{"geonameId":5802390,"name":"Marcus Peak","coordinates":{"lat":46.93789,"lng":-121.60759},"countryCode":"US","adminArea1":"Washington","adminArea2":"Pierce County","elevation":2092}]},{"id":63,"name":"Goat Island Mountain","difficulty":4,"skillLevel":3,"distance":12,"elevationGain":4000,"tripLengthUnit":"hours","tripLengthValue":11,"bestMonthStart":5,"bestMonthEnd":8,"peaks":[{"geonameId":5795610,"name":"Goat Island Mountain","coordinates":{"lat":46.88011,"lng":-121.66065},"countryCode":"US","adminArea1":"Washington","adminArea2":"Pierce County","elevation":2198}]},{"id":73,"name":"Mount Saint Helens","difficulty":5,"skillLevel":2,"distance":12,"elevationGain":5800,"tripLengthUnit":"hours","tripLengthValue":12,"bestMonthStart":3,"bestMonthEnd":5,"peaks":[{"geonameId":5809218,"name":"Mount Saint Helens","coordinates":{"lat":46.1912,"lng":-122.1944},"countryCode":"US","adminArea1":"Washington","adminArea2":"Skamania County","elevation":2078}]},{"id":29,"name":"Breccia Peak","difficulty":3,"skillLevel":3,"distance":12,"elevationGain":4600,"tripLengthUnit":"hours","tripLengthValue":9,"bestMonthStart":6,"bestMonthEnd":8,"peaks":[{"geonameId":900000008,"name":"Breccia Peak","coordinates":{"lat":48.123986,"lng":-121.302624},"countryCode":"US","adminArea1":"Washington","adminArea2":"Snohomish County","elevation":1978}]},{"id":30,"name":"Three Fingers","difficulty":4,"skillLevel":4,"distance":15,"elevationGain":4200,"tripLengthUnit":"hours","tripLengthValue":11,"bestMonthStart":6,"bestMonthEnd":9,"peaks":[{"geonameId":5844173,"name":"Three Fingers","coordinates":{"lat":48.17038,"lng":-121.68818},"countryCode":"US","adminArea1":"Washington","adminArea2":"Snohomish County","elevation":1984}]},{"id":31,"name":"Stillaguamish Peak","difficulty":4,"skillLevel":3,"distance":13,"elevationGain":3800,"tripLengthUnit":"hours","tripLengthValue":11,"bestMonthStart":2,"bestMonthEnd":11,"peaks":[{"geonameId":5812215,"name":"Stillaguamish Peak","coordinates":{"lat":48.094,"lng":-121.48484},"countryCode":"US","adminArea1":"Washington","adminArea2":"Snohomish County","elevation":1659}]},{"id":33,"name":"Kyes Peak","difficulty":5,"skillLevel":5,"distance":13,"elevationGain":5500,"tripLengthUnit":"hours","tripLengthValue":15,"bestMonthStart":6,"bestMonthEnd":8,"peaks":[{"geonameId":5800060,"name":"Kyes Peak","coordinates":{"lat":47.96483,"lng":-121.33288},"countryCode":"US","adminArea1":"Washington","adminArea2":"Snohomish County","elevation":2122}]},{"id":32,"name":"Del Campo Peak","difficulty":4,"skillLevel":5,"distance":12,"elevationGain":4500,"tripLengthUnit":"hours","tripLengthValue":12,"bestMonthStart":6,"bestMonthEnd":8,"peaks":[{"geonameId":5792175,"name":"Del Campo Peak","coordinates":{"lat":47.99094,"lng":-121.47039},"countryCode":"US","adminArea1":"Washington","adminArea2":"Snohomish County","elevation":2007}]},{"id":4,"name":"Coleman Pinnacle","difficulty":2,"skillLevel":2,"distance":10,"elevationGain":2000,"tripLengthUnit":"hours","tripLengthValue":8,"bestMonthStart":7,"bestMonthEnd":9,"peaks":[{"geonameId":900000000,"name":"Coleman Pinnacle","coordinates":{"lat":48.820865,"lng":-121.740908},"countryCode":"US","adminArea1":"Washington","adminArea2":"Whatcom County","elevation":1955}]},{"id":2,"name":"Yellow Aster Butte","difficulty":1,"skillLevel":1,"distance":8,"elevationGain":2800,"tripLengthUnit":"hours","tripLengthValue":7,"bestMonthStart":6,"bestMonthEnd":9,"peaks":[{"geonameId":5816636,"name":"Yellow Aster Butte","coordinates":{"lat":48.9554,"lng":-121.67958},"countryCode":"US","adminArea1":"Washington","adminArea2":"Whatcom County","elevation":1868}]},{"id":7,"name":"Ruby Mountain","difficulty":4,"skillLevel":4,"distance":9,"elevationGain":5700,"tripLengthUnit":"hours","tripLengthValue":12,"bestMonthStart":5,"bestMonthEnd":10,"peaks":[{"geonameId":5808986,"name":"Ruby Mountain","coordinates":{"lat":48.69457,"lng":-121.04262},"countryCode":"US","adminArea1":"Washington","adminArea2":"Whatcom County","elevation":2225}]},{"id":6,"name":"Mount Prophet","difficulty":4,"skillLevel":2,"distance":24,"elevationGain":8700,"tripLengthUnit":"days","tripLengthValue":3,"bestMonthStart":6,"bestMonthEnd":9,"peaks":[{"geonameId":5807459,"name":"Mount Prophet","coordinates":{"lat":48.84874,"lng":-121.16263},"countryCode":"US","adminArea1":"Washington","adminArea2":"Whatcom County","elevation":2315}]},{"id":5,"name":"Hadley Peak","difficulty":3,"skillLevel":3,"distance":11,"elevationGain":3600,"tripLengthUnit":"hours","tripLengthValue":9,"bestMonthStart":6,"bestMonthEnd":9,"peaks":[{"geonameId":5796486,"name":"Hadley Peak","coordinates":{"lat":48.81401,"lng":-121.82237},"countryCode":"US","adminArea1":"Washington","adminArea2":"Whatcom County","elevation":2277}]},{"id":3,"name":"Goat Mountain","difficulty":4,"skillLevel":4,"distance":10,"elevationGain":4400,"tripLengthUnit":"hours","tripLengthValue":9,"bestMonthStart":4,"bestMonthEnd":9,"peaks":[{"geonameId":5795631,"name":"Goat Mountain","coordinates":{"lat":48.92846,"lng":-121.62625},"countryCode":"US","adminArea1":"Washington","adminArea2":"Whatcom County","elevation":2076}]},{"id":8,"name":"Crater Mountain","difficulty":5,"skillLevel":4,"distance":15,"elevationGain":6300,"tripLengthUnit":"hours","tripLengthValue":11,"bestMonthStart":6,"bestMonthEnd":8,"peaks":[{"geonameId":5791347,"name":"Crater Mountain","coordinates":{"lat":48.7393,"lng":-120.919},"countryCode":"US","adminArea1":"Washington","adminArea2":"Whatcom County","elevation":2378}]},{"id":1,"name":"Church Mountain","difficulty":4,"skillLevel":5,"distance":10,"elevationGain":4100,"tripLengthUnit":"hours","tripLengthValue":9,"bestMonthStart":6,"bestMonthEnd":8,"peaks":[{"geonameId":5790117,"name":"Church Mountain","coordinates":{"lat":48.92679,"lng":-121.88209},"countryCode":"US","adminArea1":"Washington","adminArea2":"Whatcom County","elevation":1735}]},{"id":70,"name":"Ives Peak","difficulty":4,"skillLevel":3,"distance":21,"elevationGain":4300,"tripLengthUnit":"days","tripLengthValue":2,"bestMonthStart":4,"bestMonthEnd":9,"peaks":[{"geonameId":5798506,"name":"Ives Peak","coordinates":{"lat":46.50317,"lng":-121.44703},"countryCode":"US","adminArea1":"Washington","adminArea2":"Yakima County","elevation":2358}]},{"id":71,"name":"Gilbert Peak","difficulty":4,"skillLevel":4,"distance":20,"elevationGain":4200,"tripLengthUnit":"days","tripLengthValue":2,"bestMonthStart":5,"bestMonthEnd":9,"peaks":[{"geonameId":5795454,"name":"Gilbert Peak","coordinates":{"lat":46.48845,"lng":-121.40703},"countryCode":"US","adminArea1":"Washington","adminArea2":"Yakima County","elevation":2409}]},{"id":72,"name":"Mount Adams","difficulty":5,"skillLevel":3,"distance":12,"elevationGain":6800,"tripLengthUnit":"hours","tripLengthValue":13,"bestMonthStart":6,"bestMonthEnd":8,"peaks":[{"geonameId":5785294,"name":"Mount Adams","coordinates":{"lat":46.20262,"lng":-121.49064},"countryCode":"US","adminArea1":"Washington","adminArea2":"Yakima County","elevation":3745}]}]